$GPGGA,065245.00,3726.840124,N,12638.894965,E,1,29,0.6,49.3,M,17.7,M,,*54
$GPGGA,065246.00,3726.840179,N,12638.894992,E,1,30,0.6,49.3,M,17.7,M,,*5F
$GPGGA,065247.00,3726.840202,N,12638.894906,E,1,25,0.6,49.2,M,17.7,M,,*59
$GPGGA,065248.00,3726.840220,N,12638.894863,E,1,26,0.6,49.3,M,17.7,M,,*56
$GPGGA,065249.00,3726.840399,N,12638.894140,E,1,33,0.6,49.3,M,17.7,M,,*58
$GPGGA,065250.00,3726.840400,N,12638.894131,E,1,30,0.6,49.3,M,17.7,M,,*52
$GPGGA,065251.00,3726.840400,N,12638.894123,E,1,30,0.6,49.3,M,17.7,M,,*50
$GPGGA,065252.00,3726.840400,N,12638.894114,E,1,28,0.6,49.3,M,17.7,M,,*5E
$GPGGA,065253.00,3726.840404,N,12638.894100,E,1,28,0.6,49.3,M,17.7,M,,*5E
$GPGGA,065254.00,3726.840409,N,12638.894084,E,1,31,0.6,49.3,M,17.7,M,,*51
$GPGGA,065255.00,3726.840675,N,12638.892991,E,1,27,0.6,49.3,M,17.7,M,,*55
$GPGGA,065256.00,3726.840589,N,12638.892145,E,1,29,0.6,49.3,M,17.7,M,,*59
$GPGGA,065257.00,3726.840372,N,12638.891412,E,1,33,0.6,49.2,M,17.7,M,,*54
$GPGGA,065258.00,3726.840474,N,12638.891315,E,1,31,0.6,49.3,M,17.7,M,,*59
$GPGGA,065259.00,3726.840431,N,12638.891171,E,1,29,0.6,49.3,M,17.7,M,,*50
$GPGGA,065300.00,3726.840404,N,12638.891104,E,1,30,0.6,49.3,M,17.7,M,,*51
$GPGGA,065301.00,3726.840362,N,12638.890984,E,1,28,0.6,49.3,M,17.7,M,,*5F
$GPGGA,065302.00,3726.840335,N,12638.890877,E,1,31,0.6,49.3,M,17.7,M,,*5B
$GPGGA,065303.00,3726.840136,N,12638.890714,E,1,33,0.6,49.3,M,17.7,M,,*53
$GPGGA,065304.00,3726.839841,N,12638.890106,E,1,31,0.6,49.2,M,17.7,M,,*55
$GPGGA,065305.00,3726.839592,N,12638.889573,E,1,31,0.6,49.2,M,17.7,M,,*59
$GPGGA,065306.00,3726.839621,N,12638.889423,E,1,30,0.6,49.2,M,17.7,M,,*54
$GPGGA,065307.00,3726.839403,N,12638.889059,E,1,29,0.6,49.3,M,17.7,M,,*57
$GPGGA,065308.00,3726.839046,N,12638.888213,E,1,30,0.6,49.5,M,17.7,M,,*5E
$GPGGA,065309.00,3726.838624,N,12638.887743,E,1,33,0.6,49.8,M,17.7,M,,*5D
$GPGGA,065310.00,3726.838406,N,12638.887376,E,1,31,0.6,50.0,M,17.7,M,,*57
$GPGGA,065311.00,3726.838396,N,12638.887377,E,1,30,0.6,50.2,M,17.7,M,,*5A
$GPGGA,065312.00,3726.838350,N,12638.887458,E,1,33,0.6,50.2,M,17.7,M,,*5A
$GPGGA,065313.00,3726.838349,N,12638.888021,E,1,33,0.6,50.1,M,17.7,M,,*55
$GPGGA,065314.00,3726.838480,N,12638.888216,E,1,30,0.6,50.0,M,17.7,M,,*54
$GPGGA,065315.00,3726.838688,N,12638.888785,E,1,30,0.6,49.7,M,17.7,M,,*5F
$GPGGA,065316.00,3726.838785,N,12638.888701,E,1,29,0.6,49.4,M,17.7,M,,*57
$GPGGA,065317.00,3726.838819,N,12638.888714,E,1,32,0.6,49.4,M,17.7,M,,*52
$GPGGA,065318.00,3726.838837,N,12638.888704,E,1,28,0.6,49.4,M,17.7,M,,*5B
$GPGGA,065319.00,3726.838857,N,12638.888744,E,1,31,0.6,49.3,M,17.7,M,,*57
$GPGGA,065320.00,3726.838910,N,12638.888800,E,1,31,0.6,49.3,M,17.7,M,,*50
$GPGGA,065321.00,3726.838941,N,12638.888849,E,1,30,0.6,49.4,M,17.7,M,,*5E
$GPGGA,065322.00,3726.838976,N,12638.888864,E,1,32,0.6,49.4,M,17.7,M,,*54
$GPGGA,065323.00,3726.839026,N,12638.888924,E,1,30,0.6,49.4,M,17.7,M,,*5F
$GPGGA,065324.00,3726.839072,N,12638.888972,E,1,33,0.6,49.4,M,17.7,M,,*59
$GPGGA,065325.00,3726.839107,N,12638.888960,E,1,31,0.6,49.5,M,17.7,M,,*5B
$GPGGA,065326.00,3726.839169,N,12638.889018,E,1,30,0.6,49.5,M,17.7,M,,*56
$GPGGA,065327.00,3726.839194,N,12638.889023,E,1,32,0.6,49.5,M,17.7,M,,*5F
$GPGGA,065328.00,3726.839213,N,12638.889040,E,1,29,0.6,49.6,M,17.7,M,,*50
$GPGGA,065329.00,3726.839249,N,12638.889086,E,1,34,0.6,49.6,M,17.7,M,,*58
$GPGGA,065330.00,3726.839296,N,12638.889234,E,1,33,0.6,49.6,M,17.7,M,,*5E
$GPGGA,065331.00,3726.839417,N,12638.889269,E,1,29,0.6,49.6,M,17.7,M,,*53
$GPGGA,065332.00,3726.839501,N,12638.890019,E,1,29,0.6,49.6,M,17.7,M,,*5B
$GPGGA,065333.00,3726.839783,N,12638.890349,E,1,31,0.6,49.6,M,17.7,M,,*5D
$GPGGA,065334.00,3726.839994,N,12638.890779,E,1,30,0.6,49.6,M,17.7,M,,*54
$GPGGA,065335.00,3726.840054,N,12638.890852,E,1,32,0.6,49.6,M,17.7,M,,*5A
$GPGGA,065336.00,3726.840061,N,12638.890906,E,1,31,0.6,49.6,M,17.7,M,,*5C
$GPGGA,065337.00,3726.840071,N,12638.890984,E,1,32,0.6,49.6,M,17.7,M,,*55
$GPGGA,065338.00,3726.840085,N,12638.891023,E,1,34,0.6,49.6,M,17.7,M,,*52
$GPGGA,065339.00,3726.840151,N,12638.891543,E,1,32,0.6,49.6,M,17.7,M,,*5E
$GPGGA,065340.00,3726.840186,N,12638.892180,E,1,28,0.6,49.7,M,17.7,M,,*58
$GPGGA,065341.00,3726.840225,N,12638.892590,E,1,29,0.6,49.7,M,17.7,M,,*57
$GPGGA,065342.00,3726.840261,N,12638.892610,E,1,28,0.6,49.6,M,17.7,M,,*5F
$GPGGA,065343.00,3726.840587,N,12638.893023,E,1,30,0.6,49.6,M,17.7,M,,*5F
$GPGGA,065344.00,3726.840942,N,12638.893322,E,1,29,0.6,49.6,M,17.7,M,,*57
$GPGGA,065345.00,3726.841501,N,12638.893706,E,1,27,0.6,49.5,M,17.7,M,,*53
$GPGGA,065346.00,3726.841981,N,12638.893923,E,1,30,0.6,49.4,M,17.7,M,,*5A
$GPGGA,065347.00,3726.842211,N,12638.893673,E,1,29,0.6,51.3,M,17.7,M,,*56
$GPGGA,065348.00,3726.842287,N,12638.893519,E,1,30,0.6,52.4,M,17.7,M,,*55
$GPGGA,065349.00,3726.842448,N,12638.893527,E,1,29,0.6,52.0,M,17.7,M,,*50
$GPGGA,065350.00,3726.842511,N,12638.893621,E,1,27,0.6,53.3,M,17.7,M,,*5C
$GPGGA,065351.00,3726.842529,N,12638.893526,E,1,28,0.6,54.8,M,17.7,M,,*51
$GPGGA,065352.00,3726.842657,N,12638.893628,E,1,28,0.6,56.2,M,17.7,M,,*5D
$GPGGA,065353.00,3726.843010,N,12638.893667,E,1,30,0.6,57.3,M,17.7,M,,*5A
$GPGGA,065354.00,3726.843136,N,12638.893695,E,1,29,0.6,56.6,M,17.7,M,,*59
$GPGGA,065355.00,3726.843590,N,12638.894153,E,1,29,0.6,56.4,M,17.7,M,,*58
$GPGGA,065356.00,3726.844087,N,12638.894507,E,1,28,0.6,56.2,M,17.7,M,,*5D
$GPGGA,065357.00,3726.844598,N,12638.894810,E,1,30,0.6,52.0,M,17.7,M,,*53
$GPGGA,065358.00,3726.844828,N,12638.894847,E,1,28,0.6,52.6,M,17.7,M,,*57
$GPGGA,065359.00,3726.845211,N,12638.895582,E,1,28,0.6,51.5,M,17.7,M,,*52
$GPGGA,065400.00,3726.845730,N,12638.896059,E,1,28,0.6,50.7,M,17.7,M,,*5C
$GPGGA,065401.00,3726.846246,N,12638.896122,E,1,29,0.6,50.7,M,17.7,M,,*56
$GPGGA,065402.00,3726.846507,N,12638.896131,E,1,30,0.4,51.0,M,17.7,M,,*59
$GPGGA,065403.00,3726.846701,N,12638.896275,E,1,30,0.4,51.2,M,17.7,M,,*5D
$GPGGA,065404.00,3726.846945,N,12638.896189,E,1,30,0.4,51.3,M,17.7,M,,*55
$GPGGA,065405.00,3726.847122,N,12638.896284,E,1,31,0.4,52.0,M,17.7,M,,*53
$GPGGA,065406.00,3726.847146,N,12638.896108,E,1,30,0.4,53.2,M,17.7,M,,*57
$GPGGA,065407.00,3726.847525,N,12638.896308,E,1,28,0.4,53.1,M,17.7,M,,*5F
$GPGGA,065408.00,3726.847505,N,12638.896266,E,1,27,0.4,53.0,M,17.7,M,,*55
$GPGGA,065409.00,3726.847258,N,12638.896502,E,1,28,0.4,50.3,M,17.7,M,,*51
$GPGGA,065410.00,3726.847106,N,12638.896464,E,1,28,0.4,50.7,M,17.7,M,,*54
$GPGGA,065411.00,3726.847101,N,12638.896412,E,1,29,0.4,51.6,M,17.7,M,,*52
$GPGGA,065412.00,3726.847208,N,12638.896579,E,1,32,0.4,51.4,M,17.7,M,,*5F
$GPGGA,065413.00,3726.846954,N,12638.896670,E,1,30,0.4,51.6,M,17.7,M,,*57
$GPGGA,065414.00,3726.847062,N,12638.896607,E,1,33,0.4,51.7,M,17.7,M,,*5F
$GPGGA,065415.00,3726.847300,N,12638.896508,E,1,30,0.4,52.3,M,17.7,M,,*51
$GPGGA,065416.00,3726.847479,N,12638.896576,E,1,33,0.4,52.1,M,17.7,M,,*53
$GPGGA,065417.00,3726.847878,N,12638.896396,E,1,33,0.4,52.1,M,17.7,M,,*57
$GPGGA,065418.00,3726.847950,N,12638.896248,E,1,35,0.4,52.7,M,17.7,M,,*51
$GPGGA,065419.00,3726.848862,N,12638.896393,E,1,31,0.4,50.6,M,17.7,M,,*5F
$GPGGA,065420.00,3726.849779,N,12638.896633,E,1,34,0.4,50.6,M,17.7,M,,*5B
$GPGGA,065421.00,3726.849889,N,12638.896732,E,1,34,0.4,51.6,M,17.7,M,,*5B
$GPGGA,065422.00,3726.849857,N,12638.896519,E,1,35,0.4,52.4,M,17.7,M,,*50
$GPGGA,065423.00,3726.849868,N,12638.896380,E,1,36,0.4,53.9,M,17.7,M,,*54
$GPGGA,065424.00,3726.849869,N,12638.895689,E,1,32,0.4,55.3,M,17.7,M,,*55
$GPGGA,065425.00,3726.850238,N,12638.895597,E,1,35,0.4,55.2,M,17.7,M,,*58
$GPGGA,065426.00,3726.850690,N,12638.894362,E,1,29,0.4,56.7,M,17.7,M,,*5B
$GPGGA,065427.00,3726.851108,N,12638.893621,E,1,33,0.4,56.6,M,17.7,M,,*52
$GPGGA,065428.00,3726.851659,N,12638.893239,E,1,32,0.4,56.4,M,17.7,M,,*50
$GPGGA,065429.00,3726.851746,N,12638.893117,E,1,31,0.6,54.4,M,17.7,M,,*52
$GPGGA,065430.00,3726.852306,N,12638.892383,E,1,33,0.6,55.9,M,17.7,M,,*59
$GPGGA,065431.00,3726.852338,N,12638.892147,E,1,30,0.6,55.2,M,17.7,M,,*57
$GPGGA,065432.00,3726.852362,N,12638.892048,E,1,34,0.6,54.8,M,17.7,M,,*5A
$GPGGA,065433.00,3726.852526,N,12638.893067,E,1,31,0.6,53.1,M,17.7,M,,*5A
$GPGGA,065434.00,3726.852398,N,12638.894123,E,1,33,0.6,53.3,M,17.7,M,,*58
$GPGGA,065435.00,3726.852475,N,12638.893889,E,1,31,0.6,53.1,M,17.7,M,,*53
