$GNGGA,065245.00,3726.84219,N,12638.90268,E,2,12,1.24,31.9,M,17.8,M,,0000*7D
$GNGGA,065246.00,3726.84225,N,12638.90261,E,2,12,1.58,32.1,M,17.8,M,,0000*78
$GNGGA,065247.00,3726.84231,N,12638.90257,E,2,12,1.44,32.2,M,17.8,M,,0000*77
$GNGGA,065248.00,3726.84234,N,12638.90257,E,2,11,1.44,32.3,M,17.8,M,,0000*7F
$GNGGA,065249.00,3726.84241,N,12638.90257,E,2,11,1.44,32.4,M,17.8,M,,0000*7B
$GNGGA,065250.00,3726.84246,N,12638.90266,E,2,11,1.44,32.7,M,17.8,M,,0000*75
$GNGGA,065251.00,3726.84252,N,12638.90279,E,2,11,1.44,32.8,M,17.8,M,,0000*70
$GNGGA,065252.00,3726.84255,N,12638.90297,E,2,12,1.40,33.1,M,17.8,M,,0000*7B
$GNGGA,065253.00,3726.84262,N,12638.90316,E,2,12,1.40,33.2,M,17.8,M,,0000*75
$GNGGA,065254.00,3726.84251,N,12638.90324,E,2,12,0.81,34.0,M,17.8,M,,0000*7A
$GNGGA,065255.00,3726.84250,N,12638.90325,E,2,12,1.40,34.4,M,17.8,M,,0000*73
$GNGGA,065256.00,3726.84230,N,12638.90277,E,2,12,0.98,35.7,M,17.8,M,,0000*76
$GNGGA,065257.00,3726.84239,N,12638.90278,E,2,12,1.43,36.0,M,17.8,M,,0000*72
$GNGGA,065258.00,3726.84237,N,12638.90277,E,2,12,0.92,36.9,M,17.8,M,,0000*78
$GNGGA,065259.00,3726.84261,N,12638.90314,E,2,12,1.36,36.6,M,17.8,M,,0000*7E
$GNGGA,065300.00,3726.84269,N,12638.90329,E,2,12,0.81,36.9,M,17.8,M,,0000*77
$GNGGA,065301.00,3726.84261,N,12638.90319,E,2,12,0.92,37.8,M,17.8,M,,0000*7F
$GNGGA,065302.00,3726.84247,N,12638.90287,E,2,12,0.98,39.0,M,17.8,M,,0000*72
$GNGGA,065303.00,3726.84273,N,12638.90337,E,2,12,1.12,38.8,M,17.8,M,,0000*74
$GNGGA,065304.00,3726.84296,N,12638.90363,E,2,12,0.92,38.8,M,17.8,M,,0000*70
$GNGGA,065305.00,3726.84317,N,12638.90350,E,2,12,1.44,38.6,M,17.8,M,,0000*7D
$GNGGA,065307.00,3726.84366,N,12638.90376,E,2,12,1.95,38.2,M,17.8,M,,0000*75
$GNGGA,065308.00,3726.84371,N,12638.90355,E,2,12,0.98,38.8,M,17.8,M,,0000*7B
$GNGGA,065309.00,3726.84398,N,12638.90374,E,2,12,1.94,38.1,M,17.8,M,,0000*7A
$GNGGA,065310.00,3726.84408,N,12638.90384,E,2,12,1.00,38.3,M,17.8,M,,0000*7C
$GNGGA,065311.00,3726.84400,N,12638.90337,E,2,12,1.02,39.2,M,17.8,M,,0000*7F
$GNGGA,065312.00,3726.84448,N,12638.90385,E,2,12,1.94,38.2,M,17.8,M,,0000*77
$GNGGA,065313.00,3726.84460,N,12638.90380,E,2,12,0.98,38.5,M,17.8,M,,0000*73
$GNGGA,065314.00,3726.84474,N,12638.90349,E,2,12,2.66,38.7,M,17.8,M,,0000*75
$GNGGA,065315.00,3726.84507,N,12638.90348,E,2,12,1.94,38.5,M,17.8,M,,0000*7C
$GNGGA,065316.00,3726.84521,N,12638.90339,E,2,12,0.95,38.9,M,17.8,M,,0000*71
$GNGGA,065317.00,3726.84536,N,12638.90325,E,2,12,1.36,39.1,M,17.8,M,,0000*7A
$GNGGA,065318.00,3726.84573,N,12638.90349,E,2,12,1.36,38.1,M,17.8,M,,0000*7F
$GNGGA,065319.00,3726.84592,N,12638.90344,E,2,12,2.11,38.1,M,17.8,M,,0000*7A
$GNGGA,065320.00,3726.84601,N,12638.90316,E,2,12,0.91,38.7,M,17.8,M,,0000*72
$GNGGA,065321.00,3726.84626,N,12638.90291,E,2,12,2.00,38.6,M,17.8,M,,0000*73
$GNGGA,065322.00,3726.84613,N,12638.90259,E,2,12,1.47,40.2,M,17.8,M,,0000*79
$GNGGA,065323.00,3726.84617,N,12638.90234,E,2,12,1.04,40.9,M,17.8,M,,0000*7B
$GNGGA,065324.00,3726.84649,N,12638.90245,E,2,12,2.16,40.6,M,17.8,M,,0000*7E
$GNGGA,065325.00,3726.84660,N,12638.90215,E,2,12,1.28,41.1,M,17.8,M,,0000*79
$GNGGA,065326.00,3726.84689,N,12638.90206,E,2,12,2.16,40.6,M,17.8,M,,0000*77
$GNGGA,065327.00,3726.84710,N,12638.90199,E,2,12,2.16,40.5,M,17.8,M,,0000*71
$GNGGA,065328.00,3726.84726,N,12638.90185,E,2,12,1.94,40.7,M,17.8,M,,0000*7D
$GNGGA,065329.00,3726.84750,N,12638.90186,E,2,12,1.94,40.5,M,17.8,M,,0000*7C
$GNGGA,065330.00,3726.84770,N,12638.90171,E,2,12,2.94,40.5,M,17.8,M,,0000*7D
$GNGGA,065331.00,3726.84789,N,12638.90171,E,2,12,1.94,40.5,M,17.8,M,,0000*79
$GNGGA,065332.00,3726.84803,N,12638.90153,E,2,12,1.94,40.5,M,17.8,M,,0000*77
$GNGGA,065333.00,3726.84830,N,12638.90156,E,2,12,1.94,39.9,M,17.8,M,,0000*71
$GNGGA,065334.00,3726.84850,N,12638.90163,E,2,12,1.94,39.7,M,17.8,M,,0000*78
$GNGGA,065335.00,3726.84867,N,12638.90159,E,2,12,1.94,39.5,M,17.8,M,,0000*76
$GNGGA,065336.00,3726.84884,N,12638.90147,E,2,12,1.94,39.3,M,17.8,M,,0000*71
$GNGGA,065337.00,3726.84898,N,12638.90136,E,2,12,1.45,39.6,M,17.8,M,,0000*72
$GNGGA,065338.00,3726.84919,N,12638.90105,E,2,12,0.96,39.6,M,17.8,M,,0000*7A
$GNGGA,065339.00,3726.84943,N,12638.90083,E,2,12,2.01,39.5,M,17.8,M,,0000*74
$GNGGA,065340.00,3726.84980,N,12638.90069,E,2,12,1.94,39.0,M,17.8,M,,0000*7B
$GNGGA,065341.00,3726.84972,N,12638.90028,E,2,12,1.38,40.6,M,17.8,M,,0000*7C
$GNGGA,065342.00,3726.84993,N,12638.90015,E,2,12,2.64,40.3,M,17.8,M,,0000*71
$GNGGA,065343.00,3726.85031,N,12638.90017,E,2,12,1.94,39.3,M,17.8,M,,0000*70
$GNGGA,065344.00,3726.85055,N,12638.90009,E,2,12,1.95,39.0,M,17.8,M,,0000*78
$GNGGA,065345.00,3726.85073,N,12638.89993,E,2,12,1.51,39.0,M,17.8,M,,0000*77
$GNGGA,065346.00,3726.85069,N,12638.89960,E,2,12,1.40,40.0,M,17.8,M,,0000*7D
$GNGGA,065347.00,3726.85075,N,12638.89932,E,2,11,1.21,41.0,M,17.8,M,,0000*73
$GNGGA,065349.00,3726.85120,N,12638.89879,E,2,12,1.19,40.9,M,17.8,M,,0000*72
$GNGGA,065350.00,3726.85142,N,12638.89862,E,2,12,1.38,40.8,M,17.8,M,,0000*76
$GNGGA,065351.00,3726.85174,N,12638.89852,E,2,12,1.38,39.9,M,17.8,M,,0000*7E
$GNGGA,065352.00,3726.85202,N,12638.89842,E,2,12,1.38,39.9,M,17.8,M,,0000*7E
$GNGGA,065353.00,3726.85231,N,12638.89828,E,2,12,1.40,39.4,M,17.8,M,,0000*71
$GNGGA,065354.00,3726.85249,N,12638.89810,E,2,12,1.42,39.6,M,17.8,M,,0000*72
$GNGGA,065355.00,3726.85282,N,12638.89824,E,2,12,1.40,39.0,M,17.8,M,,0000*77
$GNGGA,065356.00,3726.85303,N,12638.89822,E,2,12,1.17,38.9,M,17.8,M,,0000*70
$GNGGA,065357.00,3726.85332,N,12638.89839,E,2,12,1.19,38.6,M,17.8,M,,0000*78
$GNGGA,065358.00,3726.85367,N,12638.89839,E,2,12,1.19,38.0,M,17.8,M,,0000*71
$GNGGA,065359.00,3726.85418,N,12638.89845,E,2,11,1.49,37.1,M,17.8,M,,0000*7C
$GNGGA,065400.00,3726.85432,N,12638.89819,E,2,12,1.06,37.0,M,17.8,M,,0000*7F
$GNGGA,065401.00,3726.85436,N,12638.89796,E,2,12,0.85,37.4,M,17.8,M,,0000*7C
$GNGGA,065402.00,3726.85472,N,12638.89815,E,2,12,1.40,36.2,M,17.8,M,,0000*74
$GNGGA,065403.00,3726.85507,N,12638.89816,E,2,12,0.96,35.5,M,17.8,M,,0000*7B
$GNGGA,065404.00,3726.85545,N,12638.89812,E,2,12,0.96,34.9,M,17.8,M,,0000*73
$GNGGA,065405.00,3726.85578,N,12638.89803,E,2,12,0.99,34.7,M,17.8,M,,0000*7D
$GNGGA,065406.00,3726.85612,N,12638.89812,E,2,12,1.41,33.9,M,17.8,M,,0000*7C
$GNGGA,065407.00,3726.85641,N,12638.89819,E,2,12,1.40,33.3,M,17.8,M,,0000*7B
$GNGGA,065408.00,3726.85669,N,12638.89826,E,2,12,2.03,33.0,M,17.8,M,,0000*75
$GNGGA,065409.00,3726.85708,N,12638.89811,E,2,12,1.17,32.4,M,17.8,M,,0000*75
$GNGGA,065410.00,3726.85749,N,12638.89845,E,2,12,1.40,31.1,M,17.8,M,,0000*7D
$GNGGA,065411.00,3726.85784,N,12638.89873,E,2,12,0.99,30.0,M,17.8,M,,0000*7D
$GNGGA,065412.00,3726.85816,N,12638.89885,E,2,12,0.99,29.0,M,17.8,M,,0000*7B
$GNGGA,065413.00,3726.85847,N,12638.89894,E,2,12,1.49,28.0,M,17.8,M,,0000*73
$GNGGA,065414.00,3726.85876,N,12638.89887,E,2,12,0.99,27.3,M,17.8,M,,0000*74
$GNGGA,065415.00,3726.85913,N,12638.89879,E,2,12,1.21,26.4,M,17.8,M,,0000*72
$GNGGA,065416.00,3726.85942,N,12638.89852,E,2,12,1.19,25.9,M,17.8,M,,0000*79
$GNGGA,065417.00,3726.85968,N,12638.89837,E,2,12,1.41,25.1,M,17.8,M,,0000*76
$GNGGA,065418.00,3726.85998,N,12638.89843,E,2,12,1.40,24.4,M,17.8,M,,0000*70
$GNGGA,065419.00,3726.86034,N,12638.89854,E,2,12,1.58,23.8,M,17.8,M,,0000*79
$GNGGA,065420.00,3726.86064,N,12638.89872,E,2,12,1.46,23.0,M,17.8,M,,0000*75
$GNGGA,065421.00,3726.86100,N,12638.89881,E,2,12,1.40,22.4,M,17.8,M,,0000*78
$GNGGA,065422.00,3726.86133,N,12638.89870,E,2,12,1.49,21.7,M,17.8,M,,0000*7C
$GNGGA,065423.00,3726.86162,N,12638.89855,E,2,12,1.40,21.8,M,17.8,M,,0000*78
$GNGGA,065424.00,3726.86193,N,12638.89847,E,2,12,1.43,21.5,M,17.8,M,,0000*7C
$GNGGA,065425.00,3726.86228,N,12638.89837,E,2,12,1.43,21.1,M,17.8,M,,0000*7D
$GNGGA,065426.00,3726.86246,N,12638.89781,E,2,12,0.93,21.5,M,17.8,M,,0000*7C
$GNGGA,065427.00,3726.86271,N,12638.89762,E,2,12,0.95,21.7,M,17.8,M,,0000*70
$GNGGA,065428.00,3726.86291,N,12638.89728,E,2,12,0.77,22.2,M,17.8,M,,0000*75
$GNGGA,065429.00,3726.86308,N,12638.89706,E,2,12,1.02,22.4,M,17.8,M,,0000*7C
$GNGGA,065430.00,3726.86319,N,12638.89671,E,2,12,0.90,22.8,M,17.8,M,,0000*73
$GNGGA,065431.00,3726.86338,N,12638.89657,E,2,12,1.51,22.6,M,17.8,M,,0000*77
$GNGGA,065432.00,3726.86349,N,12638.89623,E,2,12,0.90,22.9,M,17.8,M,,0000*72
$GNGGA,065433.00,3726.86361,N,12638.89596,E,2,12,1.02,23.1,M,17.8,M,,0000*77
$GNGGA,065434.00,3726.86370,N,12638.89564,E,2,12,0.88,23.4,M,17.8,M,,0000*7B
$GNGGA,065435.00,3726.86366,N,12638.89528,E,2,12,0.88,23.7,M,17.8,M,,0000*76